[{"location":"Europe","address":"163.172.85.103:3147","current_players":0,"systems":[]},{"location":"Europe","address":"51.255.194.113:3001","current_players":0,"systems":[]},{"location":"Europe","address":"51.255.38.205:3001","current_players":0,"systems":[]},{"location":"Europe","address":"193.70.90.55:3001","current_players":0,"systems":[]},{"location":"Europe","address":"164.132.193.223:3001","current_players":0,"systems":[{"name":"Delta Vetaereo","id":2115,"players":0,"open":false}]},{"location":"US East","address":"192.99.13.33:3036","current_players":41,"systems":[{"name":"292 Achernaeria","id":4841,"players":40,"open":true}]},{"location":"US East","address":"192.99.13.33:3037","current_players":47,"systems":[{"name":"Alchigonior","id":9587,"players":43,"open":true},{"name":"Hoebalor 44","id":771,"players":4,"open":false}]},{"location":"Asia","address":"188.166.222.131:3001","current_players":1,"systems":[{"name":"Tutaereo 867","id":7025,"players":1,"open":true}]},{"location":"Europe","address":"163.172.85.103:3151","current_players":25,"systems":[{"name":"Delta Albitiorius","id":7903,"players":25,"open":true}]},{"location":"Europe","address":"163.172.85.103:3150","current_players":0,"systems":[]},{"location":"Europe","address":"163.172.85.103:3149","current_players":24,"systems":[{"name":"Asteriolaris 47","id":7085,"players":24,"open":true}]},{"location":"Europe","address":"163.172.85.103:3148","current_players":3,"systems":[{"name":"Asteriaraph","id":2331,"players":2,"open":false}]},{"location":"Europe","address":"163.172.85.103:3146","current_players":0,"systems":[]},{"location":"Europe","address":"163.172.85.103:3145","current_players":0,"systems":[]},{"location":"Europe","address":"163.172.85.103:3144","current_players":1,"systems":[]}]