[{"location":"Europe","address":"163.172.85.103:3005","current_players":0,"systems":[]},{"location":"Europe","address":"163.172.85.103:3000","current_players":24,"systems":[{"name":"Asteralis 2","id":2786,"players":24,"open":true,"survival":false,"time":1309}]},{"location":"Europe","address":"163.172.85.103:3007","current_players":27,"systems":[{"name":"Antabalasi","id":2711,"players":27,"open":true,"survival":false,"time":1138}]},{"location":"South America","address":"181.41.217.57:3001","current_players":1,"systems":[]},{"location":"US East","address":"192.99.13.33:3000","current_players":1,"systems":[]},{"location":"South America","address":"191.96.6.71:3000","current_players":1,"systems":[]},{"location":"Europe","address":"163.172.85.103:3001","current_players":7,"systems":[{"name":"Asterirauris 24","id":3173,"players":7,"open":false,"survival":true,"time":2674}]},{"location":"Europe","address":"51.255.194.113:3000","current_players":0,"systems":[]},{"location":"South America","address":"191.96.5.200:3004","current_players":13,"systems":[{"name":"Proxichima","id":9021,"players":13,"open":true,"survival":false,"time":2279}]},{"location":"Europe","address":"163.172.85.103:3004","current_players":0,"systems":[]},{"location":"Europe","address":"163.172.85.103:3002","current_players":15,"systems":[{"name":"Alpha Tubaldireo","id":9993,"players":15,"open":false,"survival":false,"time":4258}]},{"location":"US East","address":"192.99.13.33:3001","current_players":0,"systems":[]},{"location":"South America","address":"191.96.5.200:3005","current_players":0,"systems":[]},{"location":"South America","address":"181.41.217.42:3000","current_players":0,"systems":[]},{"location":"Europe","address":"163.172.85.103:3003","current_players":0,"systems":[]},{"location":"Europe","address":"51.255.38.205:3000","current_players":0,"systems":[]},{"location":"Asia","address":"188.166.236.18:3006","current_players":19,"systems":[{"name":"Praemeicis","id":4688,"players":19,"open":true,"survival":false,"time":3388}]},{"location":"Europe","address":"163.172.85.103:3006","current_players":0,"systems":[]},{"location":"Europe","address":"193.70.90.55:3012","current_players":22,"systems":[{"name":"Tustramak 339","id":2889,"players":21,"open":true,"survival":false,"time":1947}]},{"location":"Europe","address":"164.132.193.223:3000","current_players":28,"systems":[{"name":"Hoebaldis","id":6347,"players":28,"open":true,"survival":false,"time":450}]},{"location":"South America","address":"181.41.217.42:3001","current_players":0,"systems":[]},{"location":"South America","address":"181.41.217.57:3000","current_players":0,"systems":[]},{"location":"US East","address":"138.197.36.205:3000","current_players":10,"systems":[{"name":"Electiamar","id":3512,"players":10,"open":true,"survival":false,"time":442}]},{"location":"Asia","address":"128.199.242.253:3000","current_players":19,"systems":[{"name":"42 Haelaereo","id":6795,"players":19,"open":true,"survival":false,"time":2056}]},{"location":"US East","address":"104.236.206.136:3002","current_players":0,"systems":[]},{"location":"Dallas","address":"104.156.237.78:3000","current_players":10,"systems":[{"name":"Delta Acarophos","id":1846,"players":10,"open":true,"survival":false,"time":2606}]}]