[{"location":"Brazil","address":"181.41.217.57:3004","current_players":1,"systems":[]},{"location":"Asia","address":"45.76.163.129:3002","current_players":37,"systems":[{"name":"Gamma Arcastraguli","id":1235,"players":19,"open":true,"survival":false,"time":4333},{"name":"Albatiaraph 935","id":3815,"players":18,"open":true,"survival":false,"time":2626}]},{"location":"Europe","address":"51.255.38.205:3004","current_players":25,"systems":[{"name":"Tustraraph 17","id":8818,"players":25,"open":true,"survival":false,"time":753}]},{"location":"Europe","address":"51.255.194.113:3004","current_players":15,"systems":[{"name":"Beta Boremeirai","id":4441,"players":15,"open":false,"survival":false,"time":2297}]},{"location":"Brazil","address":"181.41.217.57:3005","current_players":0,"systems":[]},{"location":"America","address":"45.32.192.98:3003","current_players":0,"systems":[]},{"location":"America","address":"45.32.193.42:3001","current_players":18,"systems":[{"name":"Alpha Elechilaris","id":1549,"players":18,"open":true,"survival":false,"time":2593}]},{"location":"Europe","address":"163.172.85.103:3039","current_players":1,"systems":[]},{"location":"Europe","address":"164.132.193.223:3004","current_players":17,"systems":[{"name":"Dialaeria 2","id":6466,"players":17,"open":true,"survival":false,"time":208}]},{"location":"Brazil","address":"181.41.217.42:3005","current_players":0,"systems":[{"name":"Aldebalos","id":7768,"players":1,"open":false,"survival":true,"time":149109}]},{"location":"US East","address":"192.99.13.33:3009","current_players":10,"systems":[{"name":"Delta Acherniarius","id":5398,"players":9,"open":true,"survival":false,"time":4498}]},{"location":"US East","address":"192.99.13.33:3008","current_players":1,"systems":[]},{"location":"Brazil","address":"191.96.5.200:3004","current_players":0,"systems":[]},{"location":"Europe","address":"193.70.90.55:3016","current_players":0,"systems":[]},{"location":"Brazil","address":"181.41.217.42:3004","current_players":0,"systems":[]},{"location":"Brazil","address":"191.96.5.200:3005","current_players":7,"systems":[{"name":"Vegonior","id":4696,"players":7,"open":true,"survival":false,"time":677}]},{"location":"Europe","address":"163.172.85.103:3038","current_players":5,"systems":[{"name":"Boretirafar","id":1697,"players":4,"open":false,"survival":true,"time":3481}]},{"location":"Europe","address":"163.172.85.103:3037","current_players":25,"systems":[{"name":"Talimar 227","id":138,"players":24,"open":true,"survival":false,"time":1191}]},{"location":"Europe","address":"163.172.85.103:3036","current_players":0,"systems":[]},{"location":"Europe","address":"163.172.85.103:3035","current_players":0,"systems":[]},{"location":"Europe","address":"163.172.85.103:3034","current_players":1,"systems":[]},{"location":"Europe","address":"163.172.85.103:3033","current_players":0,"systems":[]},{"location":"Europe","address":"163.172.85.103:3032","current_players":28,"systems":[{"name":"Proxilaeraph","id":151,"players":28,"open":true,"survival":false,"time":1550}]},{"location":"America","address":"108.61.222.52:3003","current_players":1,"systems":[]},{"location":"US East","address":"104.238.132.252:3002","current_players":9,"systems":[{"name":"Praemeireo","id":4722,"players":9,"open":true,"survival":false,"time":2496}]}]