[{"location":"Europe","address":"163.172.85.103:3020","current_players":0,"systems":[]},{"location":"Brazil","address":"181.41.217.57:3001","current_players":0,"systems":[]},{"location":"Europe","address":"193.70.90.55:3014","current_players":0,"systems":[]},{"location":"Europe","address":"51.255.38.205:3002","current_players":0,"systems":[]},{"location":"Brazil","address":"191.96.5.200:3000","current_players":6,"systems":[{"name":"Hameiria","id":3854,"players":6,"open":true,"survival":false,"time":2140}]},{"location":"Europe","address":"51.255.194.113:3002","current_players":40,"systems":[{"name":"Alborius","id":8528,"players":12,"open":false,"survival":false,"time":3490},{"name":"Kaibalia","id":1215,"players":28,"open":true,"survival":false,"time":953}]},{"location":"US East","address":"192.99.13.33:3004","current_players":11,"systems":[{"name":"Asteraratos","id":4674,"players":11,"open":true,"survival":false,"time":1684}]},{"location":"Brazil","address":"191.96.5.200:3001","current_players":0,"systems":[]},{"location":"US East","address":"192.99.13.33:3005","current_players":1,"systems":[]},{"location":"Asia","address":"45.76.163.129:3000","current_players":40,"systems":[{"name":"39 Albiphei","id":4738,"players":23,"open":false,"survival":false,"time":2368},{"name":"Cetaecis","id":6582,"players":17,"open":true,"survival":false,"time":388}]},{"location":"America","address":"45.32.192.98:3001","current_players":0,"systems":[]},{"location":"Europe","address":"163.172.85.103:3019","current_players":0,"systems":[]},{"location":"Brazil","address":"181.41.217.57:3000","current_players":0,"systems":[]},{"location":"Europe","address":"163.172.85.103:3023","current_players":0,"systems":[]},{"location":"Brazil","address":"181.41.217.42:3001","current_players":0,"systems":[]},{"location":"Brazil","address":"181.41.217.42:3000","current_players":0,"systems":[]},{"location":"Europe","address":"164.132.193.223:3002","current_players":0,"systems":[]},{"location":"Europe","address":"163.172.85.103:3022","current_players":0,"systems":[]},{"location":"Europe","address":"163.172.85.103:3021","current_players":0,"systems":[]},{"location":"Europe","address":"163.172.85.103:3018","current_players":22,"systems":[{"name":"Beta Tubalaris","id":2658,"players":22,"open":true,"survival":false,"time":228}]},{"location":"Europe","address":"163.172.85.103:3017","current_players":13,"systems":[{"name":"4 Alchitiofar","id":133,"players":13,"open":false,"survival":true,"time":2380}]},{"location":"Europe","address":"163.172.85.103:3016","current_players":41,"systems":[{"name":"11 Haetirades","id":8167,"players":15,"open":false,"survival":false,"time":2689},{"name":"13 Proxiliphei","id":4783,"players":26,"open":true,"survival":false,"time":515}]},{"location":"America","address":"108.61.222.52:3001","current_players":17,"systems":[{"name":"Albalaega 2","id":9914,"players":16,"open":true,"survival":false,"time":3441}]},{"location":"US East","address":"104.238.132.252:3000","current_players":0,"systems":[]}]