[{"location":"Europe","address":"51.255.38.205:3002","current_players":19,"systems":[{"name":"Stellalilaris","id":6119,"players":19,"open":false,"survival":false,"time":2784}]},{"location":"South America","address":"181.41.217.42:3001","current_players":28,"systems":[{"name":"816 Albatioga","id":9296,"players":28,"open":true,"survival":false,"time":768}]},{"location":"US East","address":"192.99.13.33:3004","current_players":21,"systems":[{"name":"Stellatiratarius","id":6085,"players":21,"open":true,"survival":false,"time":1844}]},{"location":"South America","address":"191.96.6.71:3003","current_players":0,"systems":[]},{"location":"South America","address":"181.41.217.57:3001","current_players":0,"systems":[]},{"location":"South America","address":"191.96.5.200:3001","current_players":0,"systems":[]},{"location":"US East","address":"45.55.250.118:3000","current_players":0,"systems":[]},{"location":"South America","address":"181.41.217.57:3000","current_players":0,"systems":[]},{"location":"Asia","address":"188.166.236.18:3004","current_players":26,"systems":[{"name":"Hybaluli","id":1138,"players":26,"open":false,"survival":false,"time":2637}]},{"location":"US East","address":"45.55.95.228:3000","current_players":0,"systems":[]},{"location":"US East","address":"45.55.81.164:3000","current_players":0,"systems":[]},{"location":"US East","address":"192.99.13.33:3005","current_players":1,"systems":[]},{"location":"Europe","address":"51.255.194.113:3002","current_players":24,"systems":[{"name":"Alchitiadem","id":656,"players":24,"open":true,"survival":false,"time":2043}]},{"location":"US East","address":"45.55.130.246:3000","current_players":0,"systems":[]},{"location":"US East","address":"45.55.71.156:3000","current_players":0,"systems":[]},{"location":"South America","address":"191.96.5.200:3000","current_players":15,"systems":[{"name":"Asteraphei","id":8389,"players":15,"open":false,"survival":false,"time":3957}]},{"location":"US East","address":"45.55.191.208:3000","current_players":0,"systems":[]},{"location":"Europe","address":"193.70.90.55:3010","current_players":0,"systems":[]},{"location":"Asia","address":"139.59.229.3:3002","current_players":4,"systems":[{"name":"Acaphoros","id":3639,"players":4,"open":true,"survival":false,"time":45}]},{"location":"Europe","address":"163.172.85.103:3222","current_players":0,"systems":[]},{"location":"South America","address":"181.41.217.42:3000","current_players":4,"systems":[{"name":"Gamma Acacis","id":6804,"players":4,"open":true,"survival":false,"time":38}]},{"location":"Europe","address":"164.132.193.223:3010","current_players":10,"systems":[{"name":"Delta Solachiga","id":8374,"players":10,"open":false,"survival":true,"time":3087}]},{"location":"Europe","address":"163.172.85.103:3223","current_players":22,"systems":[{"name":"Beta Arcagonia","id":4298,"players":22,"open":true,"survival":false,"time":259}]},{"location":"Europe","address":"163.172.85.103:3221","current_players":0,"systems":[]},{"location":"Europe","address":"163.172.85.103:3220","current_players":18,"systems":[{"name":"Gamma Antatiraga","id":8056,"players":18,"open":true,"survival":false,"time":465}]},{"location":"Europe","address":"163.172.85.103:3219","current_players":11,"systems":[{"name":"206 Tumeifar","id":247,"players":11,"open":false,"survival":false,"time":4050}]},{"location":"Europe","address":"163.172.85.103:3218","current_players":24,"systems":[{"name":"Alpha Boretiorius","id":6200,"players":24,"open":true,"survival":false,"time":739}]},{"location":"Europe","address":"163.172.85.103:3217","current_players":25,"systems":[{"name":"Hatiraphos 170","id":2618,"players":25,"open":true,"survival":false,"time":976}]},{"location":"Europe","address":"163.172.85.103:3216","current_players":0,"systems":[]},{"location":"US East","address":"104.236.235.133:3000","current_players":0,"systems":[]},{"location":"US East","address":"104.236.224.231:3000","current_players":0,"systems":[]},{"location":"US East","address":"104.236.218.132:3000","current_players":0,"systems":[]},{"location":"US East","address":"104.236.206.136:3000","current_players":0,"systems":[]}]